Time,time_boot_ms,x,y,z,vx,vy,vz,Len,crc16
2023-10-22 15:25:29,49051,-1.780519,2.951411,0.01200912,-0.008482433,0.0003736402,-0.05107822,sig,40
2023-10-22 15:25:29,49671,-1.812793,2.99192,0.0417201,0.01556447,-0.01127777,-0.03983249,sig,40
2023-10-22 15:25:30,50271,-1.852663,3.051968,0.07766409,0.01727873,-0.004685927,-0.03061737,sig,40
2023-10-22 15:25:30,50851,-1.867889,3.096639,0.09113702,0.03603662,-0.009840614,-0.02683954,sig,40
2023-10-22 15:25:31,51431,-1.868549,3.122929,0.08522701,0.05135393,-0.02173975,-0.02346663,sig,40
2023-10-22 15:25:31,51992,-1.863811,3.145221,0.0629637,0.06323629,-0.02607272,-0.02605061,sig,40
2023-10-22 15:25:32,52552,-1.871814,3.180134,0.05067671,0.06157226,-0.0210095,-0.02718135,sig,40
2023-10-22 15:25:32,53091,-1.887476,3.213638,0.06002712,0.06021207,-0.01767945,-0.02192148,sig,40
2023-10-22 15:25:33,53632,-1.915548,3.254727,0.07225773,0.05085812,-0.006167009,-0.01876846,sig,40
2023-10-22 15:25:33,54152,-1.944324,3.291672,0.07785006,0.0439144,0.002330897,-0.01638835,sig,40
2023-10-22 15:25:34,54671,-1.964531,3.321497,0.06366047,0.04352697,0.007047266,-0.01805506,sig,40
2023-10-22 15:25:35,55172,-1.982672,3.333111,0.05347421,0.04264954,0.001434406,-0.01802367,sig,40
2023-10-22 15:25:35,55671,-1.994362,3.344576,0.0140122,0.04501477,-0.0006455083,-0.02301802,sig,40
2023-10-22 15:25:35,56171,-2.010339,3.3615,-0.00978316,0.04455725,0.003005654,-0.02427635,sig,40
2023-10-22 15:25:36,56672,-2.025528,3.374012,-0.03237944,0.0452228,0.003357479,-0.02538446,sig,40
2023-10-22 15:25:36,57171,-2.038499,3.382699,-0.05584534,0.0478792,0.002003188,-0.02579567,sig,40
2023-10-22 15:25:37,57671,-2.052914,3.401657,-0.07236779,0.04914151,0.007713492,-0.02313878,sig,40
2023-10-22 15:25:38,58171,-2.079359,3.417181,-0.09689973,0.04403354,0.009005491,-0.0230802,sig,40
2023-10-22 15:25:38,58672,-2.100102,3.4282,-0.1313857,0.04352755,0.007667273,-0.02763794,sig,40
2023-10-22 15:25:39,59171,-2.12297,3.441141,-0.1664009,0.04168537,0.008454038,-0.03041806,sig,40
2023-10-22 15:25:39,59672,-2.143179,3.44808,-0.1670628,0.03950252,0.006962433,-0.02749865,sig,40
2023-10-22 15:25:40,60172,-2.162142,3.465943,-0.1849988,0.03229895,0.0149021,-0.02909318,sig,40
2023-10-22 15:25:40,60671,-2.181811,3.484388,-0.2023574,0.01908768,0.02095258,-0.02849151,sig,40
2023-10-22 15:25:41,61172,-2.204403,3.509524,-0.2117994,0.00938304,0.03191091,-0.02603872,sig,40
2023-10-22 15:25:41,61672,-2.218797,3.530781,-0.2097551,0.009235458,0.0337172,-0.02245764,sig,40
2023-10-22 15:25:42,62172,-2.241402,3.529874,-0.2107605,0.001991518,0.01809654,-0.01988948,sig,40
2023-10-22 15:25:42,62674,-2.265725,3.533778,-0.217417,-0.003602789,0.01561181,-0.01841575,sig,40
2023-10-22 15:25:43,63171,-2.282962,3.543118,-0.2309499,-0.0007726722,0.02020495,-0.01868726,sig,40
2023-10-22 15:25:43,63672,-2.292222,3.544716,-0.2369962,0.008639211,0.01672013,-0.01445818,sig,40
2023-10-22 15:25:44,64172,-2.299085,3.543316,-0.2429447,0.01533114,0.01383473,-0.01365371,sig,40
2023-10-22 15:25:44,64674,-2.316475,3.541676,-0.2571259,0.01587218,0.01163201,-0.01343507,sig,40
2023-10-22 15:25:45,65172,-2.333864,3.544971,-0.2668796,0.0172319,0.01450616,-0.01349842,sig,40
2023-10-22 15:25:45,65672,-2.342753,3.552516,-0.2726685,0.0229573,0.01885888,-0.01308536,sig,40
2023-10-22 15:25:45,66172,-2.350675,3.559966,-0.2673367,0.0288956,0.02346591,-0.009728929,sig,40
2023-10-22 15:25:46,66672,-2.355474,3.562739,-0.2732904,0.03467742,0.02745901,-0.0109941,sig,40
2023-10-22 15:25:47,67172,-2.364808,3.58633,-0.2761519,0.03887602,0.04335582,-0.01124586,sig,40
2023-10-22 15:25:47,67671,-2.382605,3.597075,-0.2690402,0.03153214,0.04723116,-0.01315352,sig,40
2023-10-22 15:25:47,68174,-2.38623,3.604892,-0.2615266,0.04012136,0.0498285,-0.009742447,sig,40
2023-10-22 15:25:48,68672,-2.385914,3.622375,-0.2600183,0.0406742,0.08659453,-0.02664992,sig,40
2023-10-22 15:25:49,69172,-2.377605,3.683275,-0.2665969,0.05558698,0.2228638,-0.04113457,sig,40
2023-10-22 15:25:49,69674,-2.383533,3.670846,-0.2374371,0.08360537,-0.2876167,0.08149193,sig,40
2023-10-22 15:25:50,70172,-2.417633,3.638594,-0.228231,-0.01359519,0.02679788,-0.00742923,sig,40
2023-10-22 15:25:50,70672,-2.448784,3.611786,-0.1972006,0.01652209,0.04225491,-0.0004395383,sig,40
2023-10-22 15:25:50,71172,-2.493953,3.620084,-0.1197278,-0.004386454,0.05923313,0.005505567,sig,40
2023-10-22 15:25:51,71672,-2.491409,3.595934,-0.0899509,0.0008765523,0.0499467,0.008266239,sig,40
2023-10-22 15:25:51,72171,-2.472622,3.554571,-0.07919004,0.01130826,0.03443006,0.01153385,sig,40
2023-10-22 15:25:52,72672,-2.427011,3.510971,-0.0671301,0.03627554,0.02455333,0.01236149,sig,40
2023-10-22 15:25:53,73171,-2.369707,3.464669,-0.04906369,0.06001338,0.01374184,0.01370141,sig,40
2023-10-22 15:25:53,73672,-2.32596,3.404923,-0.04214744,0.07150947,-0.002404782,0.01484967,sig,40
2023-10-22 15:25:53,74172,-2.300067,3.35487,-0.04059382,0.06733785,-0.006646862,0.01331907,sig,40
2023-10-22 15:25:54,74674,-2.285999,3.320166,-0.03242353,0.05815025,0.0001731373,0.01331945,sig,40
2023-10-22 15:25:54,75171,-2.24206,3.271259,-0.04416651,0.07843423,0.07202517,-0.03911418,sig,40
2023-10-22 15:25:55,75672,-2.073733,3.472118,-0.2482148,0.5230443,1.166154,-0.8899067,sig,40
2023-10-22 15:25:56,76172,-1.550548,4.129129,-0.9204482,0.9525223,2.05614,-1.781436,sig,40
2023-10-22 15:25:56,76674,-0.9057791,5.014122,-1.482874,0.8149984,1.991492,-0.3549993,sig,40
2023-10-22 15:25:56,77174,-0.3314398,5.84936,-1.412228,0.4810983,1.683806,0.8554295,sig,40
2023-10-22 15:25:57,77671,-0.1668732,6.631441,-1.059103,-0.449459,1.683074,1.034759,sig,40
2023-10-22 15:25:58,78171,-0.3656351,7.598292,-0.5586334,-0.5927747,1.877471,0.6012338,sig,40
2023-10-22 15:25:58,78672,-0.4715099,8.771821,-0.4365256,0.1650047,2.293314,-0.7195997,sig,40
2023-10-22 15:25:59,79172,-0.2699665,10.02105,-1.035769,0.7543496,2.579703,-1.988694,sig,40
2023-10-22 15:25:59,79672,0.1875969,11.2568,-2.248568,1.039155,2.549313,-2.910652,sig,40
2023-10-22 15:26:00,80172,0.6265667,12.30422,-3.685672,0.9016557,2.22372,-2.753499,sig,40
2023-10-22 15:26:00,80672,0.9383529,13.13759,-4.840943,0.5230685,1.760214,-1.593228,sig,40
2023-10-22 15:26:00,81172,0.9774553,13.81858,-5.407672,-0.03088448,1.272605,-0.4616502,sig,40
2023-10-22 15:26:01,81672,0.7526963,14.33464,-5.497104,-0.6291491,0.9354561,0.4263035,sig,40
2023-10-22 15:26:02,82172,0.3191183,14.6112,-5.217762,-0.7661046,0.5609421,1.375984,sig,40
2023-10-22 15:26:02,82672,-0.170413,14.76315,-4.503702,-0.8454126,0.2971555,2.201244,sig,40
2023-10-22 15:26:03,83171,-0.5154738,14.84495,-3.44425,-0.9141461,0.4182527,2.021128,sig,40
2023-10-22 15:26:03,83672,-0.6970674,14.67504,-2.560635,-0.5801846,-0.2463872,0.9072024,sig,40
2023-10-22 15:26:04,84171,-0.9322876,14.57665,-2.243724,-0.771405,0.7323363,-0.2304439,sig,40
2023-10-22 15:26:04,84671,-1.286422,15.07945,-2.363651,-1.042297,1.759572,-0.8625464,sig,40
2023-10-22 15:26:05,85172,-1.56916,15.99471,-2.835943,-1.211229,2.473016,-1.591035,sig,40
2023-10-22 15:26:05,85671,-1.874778,17.09192,-3.283446,-1.154629,2.210889,0.1643329,sig,40
2023-10-22 15:26:05,86172,-2.281412,18.01657,-2.683843,-1.325726,1.893695,1.883579,sig,40
2023-10-22 15:26:06,86672,-2.963124,18.85453,-1.846166,-1.175852,1.506088,1.734717,sig,40
2023-10-22 15:26:06,87172,-3.69524,19.67645,-1.29732,-1.51271,1.451497,0.5624374,sig,40
2023-10-22 15:26:07,87672,-4.499618,20.43318,-1.450495,-1.573784,1.495306,-0.7977024,sig,40
2023-10-22 15:26:08,88171,-5.286349,21.20413,-2.040668,-1.421199,1.615356,-1.666795,sig,40
2023-10-22 15:26:08,89172,-6.639673,22.88058,-3.520208,-1.30145,1.652512,-0.14475,sig,40
2023-10-22 15:26:09,89674,-7.291343,23.64791,-3.326212,-1.254769,1.4574,1.335506,sig,40
2023-10-22 15:26:09,90172,-7.885911,24.16846,-2.469832,-1.219251,1.137238,2.883771,sig,40
2023-10-22 15:26:10,90672,-8.381367,24.65973,-1.140835,-0.7728026,0.8894911,3.128594,sig,40
2023-10-22 15:26:12,92672,-8.347401,23.17044,3.321191,0.06300206,-0.4734047,2.404496,sig,40
2023-10-22 15:26:13,93672,-8.250776,22.8831,4.396609,0.1002661,-0.2999486,1.907686,sig,40
2023-10-22 15:26:14,94172,-8.284698,22.78277,4.165748,0.1608316,-0.2037834,1.34553,sig,40
2023-10-22 15:26:14,94672,-8.344256,23.07107,5.036726,0.3358922,-0.1388772,0.9954894,sig,40
2023-10-22 15:26:14,95172,-8.191885,23.11647,3.74549,0.4197389,-0.03703246,0.1724417,sig,40
2023-10-22 15:26:15,95672,-7.957878,23.23454,2.707536,0.4943267,0.05553409,-0.3087839,sig,40
2023-10-22 15:26:15,96171,-7.730674,23.34535,1.973799,0.5328339,0.12137,-0.534077,sig,40
2023-10-22 15:26:16,96671,-7.519044,23.46875,1.43852,0.5518484,0.1857115,-0.627997,sig,40
2023-10-22 15:26:17,97171,-7.35673,23.57355,0.9871034,0.362091,0.04175502,-1.117832,sig,40
2023-10-22 15:26:17,97671,-7.253225,23.60323,0.3738105,0.5027598,0.1328673,-1.640337,sig,40
2023-10-22 15:26:18,98171,-7.290146,23.69337,0.3666297,0.1940615,0.1299615,-0.6860148,sig,40
2023-10-22 15:26:18,98671,-7.419936,23.84647,0.2038406,0.2286495,0.3678883,-0.4467379,sig,40
2023-10-22 15:26:18,99172,-7.533147,23.82488,0.0359798,0.150513,0.4485565,-0.2941287,sig,40
2023-10-22 15:26:20,100172,-7.554278,24.01207,-0.3758036,0.3565859,0.1823294,-0.2981956,sig,40
2023-10-22 15:26:21,101671,-8.14422,24.21918,-0.5701189,-0.1339273,0.09660599,-0.4266239,sig,40
2023-10-22 15:26:21,102171,-7.997455,24.18544,-0.5309569,-0.06617909,0.1558888,-0.3132892,sig,40
2023-10-22 15:26:22,102672,-7.953495,24.17724,-0.5390876,-0.4786126,0.3843683,-0.3738838,sig,40
2023-10-22 15:26:23,103172,-8.000921,24.11188,-0.6429332,-0.1957964,-0.3170919,-0.3914088,sig,40
2023-10-22 15:26:24,104171,-8.737722,23.2781,-0.518793,-1.9873,-0.4734305,-0.08210526,sig,40
2023-10-22 15:26:25,105672,-10.53224,22.39548,-0.3641739,-1.486152,-0.5226965,-0.2102987,sig,40
2023-10-22 15:26:26,106671,-11.50461,21.42724,0.06593081,-1.413314,-0.8739959,-0.2883139,sig,40
2023-10-22 15:26:26,107172,-12.03129,20.81464,0.1316793,-1.229754,-0.7255828,-0.2842831,sig,40
2023-10-22 15:26:27,107672,-12.61308,20.27348,0.1620695,-1.271767,-0.7911534,-0.2955395,sig,40
2023-10-22 15:26:27,108172,-13.17758,19.83802,0.1520043,-1.14496,-0.4830987,-0.2797309,sig,40
2023-10-22 15:26:29,109172,-13.98204,19.36696,0.3269655,-0.3008005,-0.518398,0.8447253,sig,40
2023-10-22 15:26:29,109672,-13.98416,19.12025,0.5878972,0.3744155,-0.2461002,0.02149654,sig,40
2023-10-22 15:26:29,110171,-13.81324,19.0511,0.394877,0.4482574,-0.208732,-0.1192457,sig,40
2023-10-22 15:26:30,110672,-13.70895,19.03312,0.4198825,0.2148411,-0.09410194,-0.2791952,sig,40
2023-10-22 15:26:31,111172,-13.63982,19.13901,0.3280144,0.2528912,0.1247095,-0.7736143,sig,40
2023-10-22 15:26:31,111672,-13.37024,19.37473,-0.03071214,0.5728685,0.3098353,-0.7266897,sig,40
2023-10-22 15:26:32,112171,-12.93103,19.58905,-0.1235095,0.8189768,0.1914844,-0.4966259,sig,40
2023-10-22 15:26:32,113171,-11.97333,19.98174,0.4449249,0.9840614,0.1688836,-0.03758309,sig,40
2023-10-22 15:26:33,113672,-11.54538,20.13225,0.7859647,0.878114,-0.0826403,-0.1960613,sig,40
2023-10-22 15:26:34,114671,-10.61466,20.40191,1.658828,0.8943906,0.366044,-0.04187665,sig,40
2023-10-22 15:26:35,115172,-10.11145,20.52966,1.841753,0.5421423,0.1774823,0.0586734,sig,40
2023-10-22 15:26:35,115671,-9.802258,20.5621,1.935538,0.1836583,0.1923454,-0.0006604542,sig,40
2023-10-22 15:26:35,116172,-9.745275,20.61977,1.980106,-0.140761,-0.1527108,0.05724358,sig,40
2023-10-22 15:26:36,116672,-9.911327,20.42345,1.847649,-0.43594,-0.4099924,-0.1636361,sig,40
2023-10-22 15:26:36,117174,-9.924054,20.08646,1.643232,0.06505156,-0.5989996,-0.3051746,sig,40
2023-10-22 15:26:37,117671,-9.684884,19.72553,1.51847,0.3496355,-0.6503039,-0.1653522,sig,40
2023-10-22 15:26:38,118171,-9.487291,19.39342,1.641574,0.1138028,-0.2762026,-0.1370538,sig,40
2023-10-22 15:26:38,118672,-9.433072,19.22421,1.775733,0.09669702,0.01670898,-0.1782775,sig,40
2023-10-22 15:26:38,119172,-9.363854,19.21727,1.823685,0.1240333,0.007489978,-0.123449,sig,40
2023-10-22 15:26:39,119672,-9.28264,19.21424,1.832303,0.1037672,-0.0581762,-0.1384964,sig,40
2023-10-22 15:26:40,120172,-9.211428,19.23547,1.787968,0.01686063,-0.02915902,-0.1592575,sig,40
2023-10-22 15:26:40,120672,-9.1715,19.22137,1.775475,0.1223179,-0.2399832,-0.2244361,sig,40
2023-10-22 15:26:41,121171,-9.030562,19.11675,1.752602,0.222258,-0.1274611,-0.1945308,sig,40
2023-10-22 15:26:41,121671,-8.908151,19.03025,1.711358,0.1213084,-0.251517,-0.2235957,sig,40
2023-10-22 15:26:42,122172,-8.793481,18.86604,1.643503,0.04404553,-0.2115994,-0.2214964,sig,40
2023-10-22 15:26:42,122671,-8.761207,18.82857,1.530125,0.04713915,-0.002698053,-0.3044845,sig,40
2023-10-22 15:26:42,123172,-8.715633,18.85999,1.40189,0.03975832,0.1001225,-0.2930132,sig,40
2023-10-22 15:26:43,123672,-8.710762,18.90771,1.336257,0.007556122,0.04882738,-0.288049,sig,40
2023-10-22 15:26:44,124174,-8.687215,18.89379,1.300755,0.001592356,0.05629282,-0.2816345,sig,40
2023-10-22 15:26:44,124672,-8.65843,18.87021,1.296355,0.02031596,0.05993778,-0.2683595,sig,40
2023-10-22 15:26:44,125172,-8.607279,18.84468,1.326394,0.0475935,0.03189235,-0.2651476,sig,40
2023-10-22 15:26:45,125672,-8.548974,18.8837,1.393738,0.1902073,0.3574223,-0.2754055,sig,40
2023-10-22 15:26:46,126172,-8.44886,18.99411,1.448227,0.1243545,0.2076383,-0.2467766,sig,40
2023-10-22 15:26:46,126672,-8.362544,19.01373,1.469991,0.05824065,0.1005629,-0.2144656,sig,40
2023-10-22 15:26:47,127174,-8.344906,19.02818,1.470989,0.005057149,0.09188922,-0.2240583,sig,40
2023-10-22 15:26:47,127674,-8.341531,19.0308,1.455726,-0.0132752,0.07578612,-0.2263346,sig,40
2023-10-22 15:26:48,128174,-8.348449,19.03392,1.445029,-0.00964637,0.06753939,-0.2425448,sig,40
2023-10-22 15:26:48,128672,-8.356933,19.02672,1.417871,0.02122122,0.05060313,-0.2042177,sig,40
2023-10-22 15:26:49,129671,-8.437248,19.10497,1.334083,-0.2160237,0.09450918,-0.2111696,sig,40
2023-10-22 15:26:50,130672,-8.854615,19.80587,1.227688,-0.5599343,1.15008,-0.1018102,sig,40
2023-10-22 15:26:50,131172,-9.131217,20.46992,1.168324,-0.6189501,1.262674,-0.4616946,sig,40
2023-10-22 15:26:51,131671,-9.461352,21.22406,1.084068,-0.3422813,1.453808,-0.5480863,sig,40
2023-10-22 15:26:51,132174,-9.769316,21.91494,1.064585,-0.5837272,1.426643,-0.5024821,sig,40
2023-10-22 15:26:52,132672,-10.13519,22.49824,1.122734,-0.6476975,1.353871,-0.342301,sig,40
2023-10-22 15:26:52,133172,-10.38323,23.2393,1.175786,-0.5638867,1.547556,-0.03258938,sig,40
2023-10-22 15:26:53,133671,-10.56705,23.85851,1.227896,-0.5352424,1.48979,0.1054777,sig,40
2023-10-22 15:26:53,134172,-10.71313,24.52892,1.256948,-0.3182167,1.443073,0.07809051,sig,40
2023-10-22 15:26:54,134672,-10.94993,25.166,1.325724,-0.4492065,1.266602,0.2357571,sig,40
2023-10-22 15:26:55,135671,-11.2882,26.23137,1.326405,-0.072345,0.9827018,-0.4431356,sig,40
2023-10-22 15:26:56,136672,-11.28567,26.49348,1.198465,0.3921467,0.4139725,-0.3904494,sig,40
2023-10-22 15:26:56,137174,-11.10535,26.69538,1.098466,0.5255484,0.4479812,-0.170665,sig,40
2023-10-22 15:26:57,137672,-10.77317,26.72895,0.9854913,0.7449339,-0.02865161,0.002932682,sig,40
2023-10-22 15:26:58,138174,-10.37488,26.82343,0.8780788,0.6220514,-0.1314738,-0.08165194,sig,40
2023-10-22 15:26:58,138674,-9.886575,27.03278,0.8282418,0.5462099,-0.2897238,-0.2886292,sig,40
2023-10-22 15:26:59,139672,-8.948392,27.18734,0.8000885,0.6982068,-0.5028598,-0.1253153,sig,40
2023-10-22 15:26:59,140172,-8.637935,27.09715,0.7135114,0.3996391,-0.6729546,0.03842457,sig,40
2023-10-22 15:27:00,140671,-8.381241,26.94729,0.6394688,0.1810926,-0.5675076,-0.1550809,sig,40
2023-10-22 15:27:01,141672,-8.077434,26.8159,0.6720437,-0.4696271,-0.1156968,-0.1279401,sig,40
2023-10-22 15:27:02,142171,-8.114323,27.04064,0.6339688,-0.5721282,0.425835,-0.2615524,sig,40
2023-10-22 15:27:02,142671,-8.244695,27.26506,0.5602741,-0.7563925,0.4202843,-0.2069778,sig,40
2023-10-22 15:27:02,143174,-8.379979,27.37175,0.4492022,-0.7711732,0.7589718,-0.0576124,sig,40
2023-10-22 15:27:03,143672,-8.450626,27.38006,0.3077507,-0.2401595,0.5083649,-0.1320808,sig,40
2023-10-22 15:27:04,144174,-8.372093,27.13098,0.2421007,-0.004665285,-0.4725032,-0.02740895,sig,40
2023-10-22 15:27:04,144672,-8.208344,26.67985,0.1338715,0.3162464,-0.278962,-0.3321965,sig,40
2023-10-22 15:27:05,145171,-8.060399,26.50191,0.06564489,-0.1646405,-0.1086373,-0.3096258,sig,40
2023-10-22 15:27:05,145671,-8.089286,26.34046,0.06803628,-0.2887889,-0.3180495,-0.11847,sig,40
2023-10-22 15:27:05,146174,-8.129518,26.16014,0.09677453,0.03798413,-0.2620103,0.5241632,sig,40
2023-10-22 15:27:06,146674,-8.056508,26.17515,0.523111,-0.01910733,0.1955785,0.4134344,sig,40
2023-10-22 15:27:07,147172,-7.955512,26.27006,0.6689126,0.009807331,0.1838776,-0.1126125,sig,40
2023-10-22 15:27:07,147672,-7.956153,26.41037,0.7275237,-0.2072128,0.2309459,-0.1384126,sig,40
2023-10-22 15:27:08,148174,-7.975981,26.42667,0.7110019,0.04083228,0.1169589,-0.5741757,sig,40
2023-10-22 15:27:08,148672,-7.882243,26.46499,0.3947985,-0.03871062,0.5856579,-0.7616205,sig,40
2023-10-22 15:27:08,149172,-7.837681,26.47873,0.2048798,-0.1992507,0.2785542,-0.349074,sig,40
2023-10-22 15:27:09,149672,-7.900614,26.4092,0.1657781,-0.1968907,0.1427502,-0.2215441,sig,40
2023-10-22 15:27:10,150171,-7.968147,26.30762,0.1405599,-0.2333048,0.3181533,-0.1424077,sig,40
2023-10-22 15:27:11,151172,-8.394592,25.77138,0.1133746,-0.6260006,-0.2690352,-0.2113258,sig,40
2023-10-22 15:27:11,151672,-8.707637,25.26995,0.08691566,-0.6993096,-0.4783287,-0.09296927,sig,40
2023-10-22 15:27:11,152172,-9.191412,24.84648,0.02867056,-0.7365348,-0.5018043,-0.199987,sig,40
2023-10-22 15:27:13,153672,-10.27803,23.26124,0.08340052,-0.3906358,-0.466801,0.006714262,sig,40
2023-10-22 15:27:13,154174,-10.46566,22.88638,0.0958728,-0.006794265,-0.3317979,-0.1460897,sig,40
2023-10-22 15:27:14,154674,-10.50993,22.51946,0.08229515,0.3031337,-0.4445405,-0.2480194,sig,40
2023-10-22 15:27:14,155172,-10.67712,22.2551,0.02212715,0.1310292,-0.05191708,-0.1780636,sig,40
2023-10-22 15:27:15,155672,-10.87426,22.00505,0.01111803,-0.04905978,0.1283768,-0.05954698,sig,40
2023-10-22 15:27:16,156171,-11.08311,21.67926,0.0196093,-0.04370272,0.2763953,-0.1133713,sig,40
2023-10-22 15:27:17,157171,-11.41299,20.9996,0.1361342,-0.1162117,0.07041552,-0.07746459,sig,40
2023-10-22 15:27:17,158172,-11.79469,20.76239,0.1437605,-0.445445,0.01807913,-0.1954806,sig,40
2023-10-22 15:27:18,158671,-11.95233,20.62764,0.09497973,-0.1587682,-0.1395403,-0.06349315,sig,40
2023-10-22 15:27:18,159172,-12.18784,20.59741,0.09503426,-0.5725803,-0.07514492,-0.1801647,sig,40
2023-10-22 15:27:19,159672,-12.47391,20.42302,0.1912876,-0.5366302,-0.8192863,0.05706567,sig,40
2023-10-22 15:27:20,160172,-12.83249,20.19834,0.325097,-0.5387897,-0.9124888,-0.1603853,sig,40
2023-10-22 15:27:20,160672,-13.16873,20.21718,0.5278347,-0.570103,-0.7621135,0.1131821,sig,40
2023-10-22 15:27:20,161171,-13.43973,20.13771,0.6789829,-0.2722456,-0.5628989,0.320546,sig,40
2023-10-22 15:27:21,162172,-14.08316,19.46656,0.6234538,0.2076228,-0.8781558,-0.01483508,sig,40
2023-10-22 15:27:23,163171,-14.44807,18.2267,0.3562855,0.2432581,-0.878803,-0.1770318,sig,40
2023-10-22 15:27:23,164171,-14.66367,17.32646,0.05435247,0.1938999,-0.6401625,-0.04795415,sig,40
2023-10-22 15:27:24,164672,-14.61739,17.17172,0.003147132,0.1099025,-0.0881496,-0.1379285,sig,40
2023-10-22 15:27:25,165174,-14.53745,17.22762,-0.04835577,0.04676314,0.03792854,-0.2171319,sig,40
2023-10-22 15:27:25,165671,-14.45343,17.24498,-0.07864571,-0.1680597,0.2197318,-0.1514143,sig,40
2023-10-22 15:27:26,166172,-14.57737,17.24185,-0.1045667,-0.4000243,0.08942668,-0.03739937,sig,40
2023-10-22 15:27:26,166672,-14.73574,17.1255,-0.07860175,-0.08064345,-0.01107449,-0.08902716,sig,40
2023-10-22 15:27:26,167174,-14.66109,16.8674,-0.03187236,0.6514501,-0.4123158,0.03516546,sig,40
2023-10-22 15:27:27,167672,-14.32801,16.35055,-0.1356562,0.6120863,-0.71416,-0.227485,sig,40
2023-10-22 15:27:28,168172,-14.12134,15.56312,-0.1897939,0.6555163,-1.064203,-0.4659153,sig,40
2023-10-22 15:27:28,168672,-13.89174,14.94812,-0.2632687,0.7460619,-1.076738,-0.275366,sig,40
2023-10-22 15:27:29,169172,-13.57851,14.46541,-0.3161541,0.8116519,-0.9216955,0.05197745,sig,40
2023-10-22 15:27:29,169671,-13.15984,14.05227,-0.3332753,0.9927043,-0.6412457,-0.07171205,sig,40
2023-10-22 15:27:30,170672,-12.09123,13.31683,-0.2130165,1.195854,-0.3902935,-0.281399,sig,40
2023-10-22 15:27:31,171172,-11.48888,13.11602,-0.1322783,1.271016,-0.2012564,-0.01052738,sig,40
2023-10-22 15:27:31,171674,-10.80115,12.85469,-0.08681373,1.366525,-0.4467129,0.07657447,sig,40
2023-10-22 15:27:32,172171,-10.12065,12.61559,-0.1327057,1.295305,-0.2211218,0.08839431,sig,40
2023-10-22 15:27:32,172671,-9.593425,12.42915,-0.1632731,1.059829,-0.4047537,0.08480468,sig,40
2023-10-22 15:27:32,173171,-9.08522,12.1002,-0.1222928,0.9603856,-0.4696453,-0.1294858,sig,40
2023-10-22 15:27:33,173672,-8.591911,11.84091,-0.04709281,0.8308313,-0.588915,-0.1542602,sig,40
2023-10-22 15:27:34,174171,-8.238583,11.52694,0.06963148,0.6529453,-0.7349631,0.1568061,sig,40
2023-10-22 15:27:34,174671,-7.88303,11.25644,0.1141559,0.4135178,-0.6345034,0.1099402,sig,40
2023-10-22 15:27:35,175174,-7.64521,11.09153,0.1445096,0.2654887,-0.5438387,0.009345968,sig,40
2023-10-22 15:27:35,175672,-7.548214,10.86151,0.1853644,0.03360989,-0.5373191,-0.06731592,sig,40
2023-10-22 15:27:35,176172,-7.538713,10.64756,0.17745,-0.006934511,-0.2601614,0.05573423,sig,40
2023-10-22 15:27:36,176671,-7.502157,10.41724,0.1396337,0.1884096,-0.5697354,-0.1999019,sig,40
2023-10-22 15:27:37,177172,-7.511819,10.21629,0.06220013,-0.02090776,-0.06947852,-0.01128771,sig,40
2023-10-22 15:27:37,177671,-7.561979,10.14829,0.02470171,-0.07387279,-0.02084832,-0.0006670604,sig,40
2023-10-22 15:27:38,178172,-7.552475,10.09919,-0.03390102,0.1722291,0.11312,-0.002274791,sig,40
2023-10-22 15:27:38,178672,-7.556003,10.04121,-0.09244496,0.0622711,0.0889859,-0.003314277,sig,40
2023-10-22 15:27:38,179171,-7.6255,9.991551,-0.1014815,0.005384703,0.06856981,0.01771011,sig,40
2023-10-22 15:27:39,179672,-7.675304,9.914898,-0.1195872,0.04465181,0.01293656,-0.0178257,sig,40
2023-10-22 15:27:39,180172,-7.746309,9.841207,-0.1004024,0.04273438,-0.0187346,-0.01459596,sig,40
2023-10-22 15:27:40,180674,-7.825018,9.748779,-0.05492019,0.04578689,-0.04964319,0.0230486,sig,40
2023-10-22 15:27:41,181172,-7.930373,9.665081,-0.04236202,0.01060178,-0.02048841,0.01601112,sig,40
2023-10-22 15:27:41,181674,-8.054273,9.600883,-0.05186446,-0.003093408,-0.04296228,-0.01461912,sig,40
2023-10-22 15:27:41,182172,-8.186226,9.539893,-0.05614176,-0.009498167,-0.01282635,-0.01539155,sig,40
2023-10-22 15:27:42,182672,-8.307672,9.493648,-0.05711184,-0.02329409,-0.02539623,-0.009666918,sig,40
2023-10-22 15:27:42,183171,-8.437597,9.454014,-0.03377954,-0.04915885,-0.03030698,-0.0110179,sig,40
2023-10-22 15:27:43,183673,-8.546498,9.420897,-0.004501501,-0.02437668,-0.04686552,0.001671159,sig,40
2023-10-22 15:27:44,184172,-8.645671,9.389091,0.02430784,-0.01303007,-0.04484225,0.01547652,sig,40
2023-10-22 15:27:44,184672,-8.7351,9.354217,0.06472369,-0.03746826,-0.08277573,0.01301725,sig,40
2023-10-22 15:27:44,185172,-8.826726,9.360898,0.08125282,-0.1014124,-0.07899265,0.1093196,sig,40
2023-10-22 15:27:47,187171,-9.749046,9.378487,0.7269049,-0.0277202,0.02540932,-0.7362502,sig,40
2023-10-22 15:27:47,187672,-9.776824,9.49942,0.4530804,0.4528972,0.3948596,-0.4957775,sig,40
2023-10-22 15:27:47,188172,-9.511109,9.938079,0.3150436,0.4621818,0.3827072,0.03770294,sig,40
2023-10-22 15:27:48,188672,-9.366823,10.1748,0.2996503,-0.09540953,-0.02917052,0.07497595,sig,40
2023-10-22 15:27:48,189172,-9.368815,10.26537,0.2977713,0.0512884,-0.2809219,0.09288482,sig,40
2023-10-22 15:27:49,189671,-9.289534,10.2437,0.3327724,0.09655167,-0.4318311,0.04700475,sig,40
2023-10-22 15:27:50,190172,-9.354536,10.24798,0.3605638,-0.2986409,-0.2004699,0.05052464,sig,40
2023-10-22 15:27:50,190672,-9.438912,10.36428,0.3687447,0.1215509,-0.1271356,0.00141127,sig,40
2023-10-22 15:27:50,191171,-9.125081,10.37754,0.3838207,0.9413862,-0.5234917,0.07032745,sig,40
2023-10-22 15:27:51,191672,-8.614045,10.1879,0.3592596,0.9774632,-0.3170092,0.07029966,sig,40
2023-10-22 15:27:52,192174,-8.063159,10.27671,0.3744897,1.150907,0.1659032,-0.2429082,sig,40
2023-10-22 15:27:52,192672,-7.528995,10.41601,0.4004783,1.145922,0.1738424,0.05326445,sig,40
2023-10-22 15:27:53,193174,-6.93987,10.6466,0.4344076,1.002459,0.3121929,0.07042558,sig,40
2023-10-22 15:27:53,193672,-6.315211,10.84683,0.4893572,1.054482,0.1312799,-0.06075941,sig,40
2023-10-22 15:27:53,194174,-5.638016,10.99507,0.5878959,1.170092,0.1919523,-0.09424396,sig,40
2023-10-22 15:27:54,194671,-5.038519,11.22583,0.6203903,1.135224,0.3289965,0.1063757,sig,40
2023-10-22 15:27:55,195172,-4.44731,11.44765,0.637145,1.064128,0.3167427,0.1603471,sig,40
2023-10-22 15:27:55,195672,-3.811713,11.72245,0.6876687,0.8374867,0.4189479,0.0411827,sig,40
2023-10-22 15:27:56,196172,-3.306783,12.07949,0.7532741,0.7326857,0.5862534,-0.114385,sig,40
2023-10-22 15:27:56,196671,-2.81851,12.52596,0.7919173,0.8420898,0.8495317,0.228015,sig,40
2023-10-22 15:27:56,197172,-2.233555,12.9591,0.7754324,0.7134995,0.4204833,0.07383013,sig,40
2023-10-22 15:27:58,198174,-1.450526,13.50897,0.8682653,0.6471006,0.1793626,0.2021239,sig,40
2023-10-22 15:27:58,198672,-1.259383,13.70235,0.8782465,0.3999738,0.0785973,0.04470087,sig,40
2023-10-22 15:27:59,199174,-1.169282,13.95625,0.8615751,0.1894646,0.3104449,-0.04878098,sig,40
2023-10-22 15:27:59,199672,-1.101863,14.22451,0.84347,0.1140852,0.2307865,0.1266607,sig,40
2023-10-22 15:28:00,200674,-0.9981915,14.50664,0.7077614,0.09334859,-0.00118414,-0.02272183,sig,40
2023-10-22 15:28:02,202172,-0.8740371,14.72825,0.5224736,-0.06164807,-0.1085687,-0.01625801,sig,40
2023-10-22 15:28:02,202672,-0.9701221,14.57834,0.4998396,-0.4290369,-0.5074498,-0.03074156,sig,40
2023-10-22 15:28:02,203171,-1.228891,14.40275,0.4346099,-0.5090476,-0.3537821,-0.03646028,sig,40
2023-10-22 15:28:03,203671,-1.618151,14.30262,0.3836227,-0.8009577,-0.3381088,-0.1483731,sig,40
2023-10-22 15:28:03,204172,-1.926452,14.17975,0.3013741,-0.6291813,-0.3227559,0.01912392,sig,40
2023-10-22 15:28:04,204671,-2.166899,14.0397,0.199682,-0.5604257,-0.1555155,-0.07723407,sig,40
2023-10-22 15:28:05,205171,-2.461139,13.9871,0.1904374,-0.8735353,-0.1846305,-0.2220568,sig,40
2023-10-22 15:28:05,205671,-2.754524,13.96212,0.1385816,-0.6453583,-0.1886451,0.05901436,sig,40
2023-10-22 15:28:05,206172,-3.076943,13.77042,0.08237141,-0.575187,-0.4417138,-0.2147965,sig,40
2023-10-22 15:28:07,207171,-3.711123,13.14615,-0.06688073,-0.6015294,-0.7131082,0.07341682,sig,40
2023-10-22 15:28:07,207672,-4.015368,12.74625,-0.1281555,-0.5035365,-0.7019999,-0.2353184,sig,40
2023-10-22 15:28:08,208171,-4.214447,12.27469,-0.1495705,-0.2772307,-1.047611,-0.2324981,sig,40
2023-10-22 15:28:08,209172,-4.253145,11.17944,-0.2416701,0.07912216,-1.069541,0.05862258,sig,40
2023-10-22 15:28:09,209672,-4.081766,10.59032,-0.3092685,0.3901351,-0.910856,-0.1916114,sig,40
2023-10-22 15:28:10,210172,-3.71606,10.05812,-0.3082193,0.4412353,-0.780634,-0.1414735,sig,40
2023-10-22 15:28:10,210672,-3.32512,9.596928,-0.2398531,0.6520892,-0.7956447,0.06366731,sig,40
2023-10-22 15:28:11,211172,-2.791636,9.372405,-0.1235433,0.6553457,-0.2860669,0.2366777,sig,40
2023-10-22 15:28:11,211672,-2.363074,9.227203,0.09045421,0.4465337,-0.4080109,0.2768561,sig,40
2023-10-22 15:28:12,212172,-2.137473,9.186136,0.378114,-0.08342078,-0.1997623,0.2545499,sig,40
2023-10-22 15:28:12,212672,-2.03429,9.159745,0.5123525,0.001395376,-0.1423168,-0.00570974,sig,40
2023-10-22 15:28:12,213171,-1.921398,9.197341,0.5489019,0.0288147,-0.1572943,-0.008520151,sig,40
2023-10-22 15:28:13,213672,-1.83991,9.215444,0.5705598,0.04493107,-0.1278914,-0.006359003,sig,40
2023-10-22 15:28:14,214171,-1.779004,9.219434,0.5788858,0.03313662,-0.1345257,-0.004790321,sig,40
2023-10-22 15:28:14,214671,-1.739089,9.228255,0.5418973,0.004346633,-0.09177946,-0.01546727,sig,40
2023-10-22 15:28:14,215171,-1.711158,9.275457,0.5139096,0.1044317,-0.04821834,-0.01024549,sig,40
2023-10-22 15:28:15,215671,-1.662185,9.297993,0.507899,-0.003125874,-0.1103877,0.004409571,sig,40
2023-10-22 15:28:15,216174,-1.612783,9.313417,0.4741527,0.0452185,0.0002278573,-0.01900448,sig,40
2023-10-22 15:28:16,216671,-1.578611,9.332693,0.4495781,0.03598038,0.00546198,-0.03489451,sig,40
2023-10-22 15:28:17,217171,-1.543178,9.356013,0.4466046,0.02633871,0.05130863,-0.03324217,sig,40
2023-10-22 15:28:17,217672,-1.518536,9.378304,0.4421858,0.002621362,0.06849135,-0.03878455,sig,40
2023-10-22 15:28:17,218172,-1.493908,9.400563,0.4607824,-0.01848916,0.08734742,-0.0383022,sig,40
2023-10-22 15:28:18,218672,-1.493127,9.414885,0.4947117,-0.04947825,0.100443,-0.03475362,sig,40
2023-10-22 15:28:19,219172,-1.483821,9.415812,0.5161887,-0.07342701,0.1058698,-0.03335574,sig,40
2023-10-22 15:28:19,219672,-1.456489,9.411776,0.5300701,-0.08389445,0.1089407,-0.03070813,sig,40
2023-10-22 15:28:20,220171,-1.42414,9.402011,0.550942,-0.09051988,0.1109294,-0.02724947,sig,40
2023-10-22 15:28:20,220671,-1.411977,9.39554,0.5672295,-0.1114031,0.1136257,-0.0257112,sig,40
2023-10-22 15:28:20,221172,-1.419006,9.384066,0.5683013,-0.133456,0.1147175,-0.02665789,sig,40
2023-10-22 15:28:21,221672,-1.452676,9.389722,0.5701807,-0.163525,0.1249657,-0.02525698,sig,40
2023-10-22 15:28:22,222171,-1.476565,9.392097,0.5335346,-0.1826488,0.1299293,-0.029653,sig,40
2023-10-22 15:28:22,222671,-1.53407,9.393802,0.4980797,-0.2158018,0.1345355,-0.03552382,sig,40
2023-10-22 15:28:23,223172,-1.589978,9.378818,0.4864434,-0.224762,0.1326712,-0.03914336,sig,40
2023-10-22 15:28:23,223671,-1.653191,9.368353,0.4860007,-0.2497143,0.1152885,-0.0339865,sig,40
2023-10-22 15:28:23,224172,-1.738514,9.360508,0.4600134,-0.2811113,0.1251943,-0.04581844,sig,40
2023-10-22 15:28:24,224672,-1.825303,9.363757,0.4055158,-0.2925073,0.1332578,-0.05501233,sig,40
2023-10-22 15:28:25,225172,-1.916996,9.36629,0.3515594,-0.3057542,0.1409987,-0.05801153,sig,40
2023-10-22 15:28:25,225672,-2.003634,9.360637,0.3337082,-0.3172028,0.1435702,-0.05651322,sig,40
2023-10-22 15:28:26,226172,-2.11045,9.36733,0.3267512,-0.3255216,0.1479746,-0.05230758,sig,40
2023-10-22 15:28:26,226671,-2.195544,9.359271,0.3250807,-0.3426366,0.1367067,-0.0488751,sig,40
2023-10-22 15:28:26,227171,-2.219429,9.331039,0.3315835,-0.3090646,0.1254355,-0.04845133,sig,40
2023-10-22 15:28:27,227674,-2.226054,9.293593,0.3647894,-0.2781648,0.1013748,-0.04212244,sig,40
2023-10-22 15:28:28,228174,-2.208928,9.253218,0.3746477,-0.2220836,0.08766411,-0.04328415,sig,40
2023-10-22 15:28:28,228671,-2.197756,9.199682,0.3713508,-0.1821614,0.06741364,-0.04014445,sig,40
2023-10-22 15:28:29,229171,-2.195733,9.158858,0.3783181,-0.150605,0.05982086,-0.04113982,sig,40
2023-10-22 15:28:29,229672,-2.208879,9.109518,0.3970025,-0.1259177,0.04837406,-0.03728611,sig,40
2023-10-22 15:28:29,230172,-2.239103,9.04974,0.4183463,-0.1194994,0.03053397,-0.03510952,sig,40
2023-10-22 15:28:30,230672,-2.264724,9.003377,0.4722388,-0.107195,0.02800132,-0.02295875,sig,40
2023-10-22 15:28:30,231172,-2.288166,8.957438,0.5330149,-0.09911343,0.0289782,-0.01285748,sig,40
2023-10-22 15:28:31,231672,-2.299441,8.919156,0.577962,-0.08180577,0.03271279,-0.007033932,sig,40
2023-10-22 15:28:32,232172,-2.316458,8.860792,0.6275319,-0.0704957,0.02648191,0.004175819,sig,40
2023-10-22 15:28:32,232674,-2.319745,8.813416,0.6746131,-0.0661187,0.02314436,0.01031974,sig,40
2023-10-22 15:28:32,233174,-2.324711,8.756564,0.7324904,-0.05887007,0.02060222,0.01865885,sig,40
2023-10-22 15:28:33,233672,-2.324799,8.704605,0.8076569,-0.06093942,0.01885743,0.02854162,sig,40
2023-10-22 15:28:34,234172,-2.299346,8.657733,0.8865266,-0.05273852,0.0186065,0.0348151,sig,40
2023-10-22 15:28:34,234672,-2.261001,8.605728,0.9462234,-0.04309401,0.01586972,0.03763738,sig,40
2023-10-22 15:28:35,235174,-2.216196,8.551739,1.000557,-0.03559663,0.01353481,0.03975267,sig,40
2023-10-22 15:28:35,235672,-2.180405,8.49391,1.064944,-0.04901296,-0.00040167,0.04377858,sig,40
2023-10-22 15:28:35,236172,-2.111407,8.43454,1.112534,-0.02886623,0.003754559,0.04197763,sig,40
2023-10-22 15:28:36,236674,-2.056476,8.390659,1.162682,-0.0253175,0.01009703,0.0421209,sig,40
2023-10-22 15:28:36,237171,-1.98403,8.324092,1.194001,-0.02836792,-0.002514582,0.03945312,sig,40
2023-10-22 15:28:37,237674,-1.904426,8.286546,1.21879,-0.01920314,0.002884672,0.03831149,sig,40
2023-10-22 15:28:37,238171,-1.823729,8.253376,1.225955,-0.001040101,0.01859233,0.02974569,sig,40
2023-10-22 15:28:38,238671,-1.766084,8.220714,1.232683,-0.01549898,0.01028298,0.02408668,sig,40
2023-10-22 15:28:38,239172,-1.732983,8.186121,1.227988,-0.01926341,0.01790534,0.01729654,sig,40
2023-10-22 15:28:39,239671,-1.708722,8.153027,1.229623,-0.0247268,0.02519432,0.01551943,sig,40
2023-10-22 15:28:40,240171,-1.658893,8.098331,1.251219,-0.02572508,0.01466983,0.01800462,sig,40
2023-10-22 15:28:40,240672,-1.604302,8.043974,1.261765,-0.01599786,0.01279602,0.0132293,sig,40
2023-10-22 15:28:41,241171,-1.595932,7.976457,1.267292,-0.02030481,0.01142995,0.00870849,sig,40
2023-10-22 15:28:41,241671,-1.596538,7.923999,1.26531,-0.04713685,0.002198886,0.003619503,sig,40
2023-10-22 15:28:41,242172,-1.632176,7.889577,1.276461,-0.06932021,0.00936649,0.002231882,sig,40
2023-10-22 15:28:42,242674,-1.656343,7.880237,1.264224,-0.07466363,0.02117601,-0.003488137,sig,40
2023-10-22 15:28:43,243171,-1.691793,7.87833,1.252727,-0.08610675,0.03342086,-0.007291556,sig,40
2023-10-22 15:28:43,243672,-1.690431,7.878039,1.244544,-0.08023342,0.03415291,-0.008629479,sig,40
2023-10-22 15:28:44,244171,-1.690534,7.893763,1.260439,-0.0706682,0.03540015,-0.00732426,sig,40
2023-10-22 15:28:44,244671,-1.673307,7.911507,1.296235,-0.09033196,0.004587403,-0.007128826,sig,40
2023-10-22 15:28:44,245172,-1.662641,7.90556,1.345601,-0.04203171,0.03692837,0.001123347,sig,40
2023-10-22 15:28:45,245674,-1.647569,7.923474,1.379432,-0.04262246,0.03241001,0.004035709,sig,40
2023-10-22 15:28:46,246171,-1.606608,7.971188,1.386933,-0.02340738,0.03790523,0.006963898,sig,40
2023-10-22 15:28:46,246672,-1.574131,8.049641,1.419095,-0.03187049,0.05293703,0.01329355,sig,40
2023-10-22 15:28:47,247172,-1.521782,8.115909,1.42614,-0.008586108,0.05338289,0.01127613,sig,40
2023-10-22 15:28:47,247671,-1.533946,8.195477,1.455732,-0.03391133,0.06893323,0.01246061,sig,40
2023-10-22 15:28:47,248172,-1.544212,8.270721,1.470235,-0.04022292,0.07539763,0.0123269,sig,40
2023-10-22 15:28:48,248671,-1.538411,8.34555,1.477664,-0.05961908,0.06518192,0.01374892,sig,40
2023-10-22 15:28:49,249171,-1.522469,8.424568,1.469967,-0.05709057,0.08366583,0.009077801,sig,40
2023-10-22 15:28:49,249671,-1.52211,8.50898,1.459476,-0.05743197,0.08655249,0.006016551,sig,40
2023-10-22 15:28:50,250172,-1.514735,8.588379,1.444772,-0.05340654,0.09676077,0.001716863,sig,40
2023-10-22 15:28:50,250672,-1.510594,8.655764,1.421631,-0.05124667,0.09503663,-0.005638264,sig,40
2023-10-22 15:28:50,251172,-1.503771,8.717781,1.385504,-0.06348196,0.07063162,-0.009502647,sig,40
2023-10-22 15:28:51,251671,-1.493337,8.750118,1.343491,-0.03690814,0.05823765,-0.02298127,sig,40
2023-10-22 15:28:51,252172,-1.510143,8.80058,1.285354,-0.04890455,0.04693753,-0.0332807,sig,40
2023-10-22 15:28:52,252672,-1.547706,8.847814,1.231153,-0.059951,0.052147,-0.04694444,sig,40
2023-10-22 15:28:53,253172,-1.59436,8.901711,1.191383,-0.07269127,0.04216356,-0.05454205,sig,40
2023-10-22 15:28:53,253672,-1.581706,8.960768,1.16179,-0.0561025,0.05016956,-0.05935967,sig,40
2023-10-22 15:28:53,254172,-1.575806,8.982975,1.127776,-0.03855209,0.05274143,-0.06892529,sig,40
2023-10-22 15:28:54,254674,-1.595489,8.991867,1.111161,-0.05230954,0.02341573,-0.0688499,sig,40
2023-10-22 15:28:55,255172,-1.599667,8.993859,1.098851,-0.061861,0.003970058,-0.06801432,sig,40
2023-10-22 15:28:55,255671,-1.529529,8.992522,1.067058,-0.01749896,-0.0008139238,-0.07302141,sig,40
2023-10-22 15:28:56,256172,-1.434417,8.990122,1.03839,0.02327271,-0.007771689,-0.08217764,sig,40
2023-10-22 15:28:56,256672,-1.41913,8.989104,1.037422,0.008806471,-0.01497192,-0.07649112,sig,40
2023-10-22 15:28:56,257172,-1.377612,9.002005,1.049066,0.009743746,-0.01783807,-0.06768528,sig,40
2023-10-22 15:28:57,257672,-1.33891,9.017024,1.071761,0.006500439,-0.02102347,-0.05921703,sig,40
2023-10-22 15:28:58,258174,-1.29357,9.043195,1.105336,0.01575532,-0.007448078,-0.04727658,sig,40
2023-10-22 15:28:58,258672,-1.245472,9.069676,1.178656,0.01969708,0.0003530213,-0.03244234,sig,40
2023-10-22 15:28:59,259172,-1.208325,9.097096,1.273886,0.00634593,0.0002818384,-0.01417451,sig,40
2023-10-22 15:28:59,259672,-1.171842,9.127485,1.338293,0.01236136,0.008391455,-0.005407067,sig,40
2023-10-22 15:28:59,260171,-1.147138,9.154012,1.372261,0.001089389,0.009993849,-0.006789842,sig,40
2023-10-22 15:29:01,261171,-1.109714,9.200243,1.427529,-0.008324387,0.01389468,-0.003969323,sig,40
2023-10-22 15:29:02,262172,-1.088649,9.234696,1.464573,-0.01144541,0.009837327,-0.0005813387,sig,40
2023-10-22 15:29:02,262672,-1.075854,9.25479,1.459061,-0.01514352,0.007332432,-0.005156472,sig,40
2023-10-22 15:29:02,263171,-1.069942,9.27905,1.465434,-0.03027389,-0.00288073,-0.002256367,sig,40
2023-10-22 15:29:03,263671,-1.055831,9.30259,1.466258,-0.01774121,0.004774086,-0.0008955856,sig,40
2023-10-22 15:29:04,264171,-1.043286,9.327799,1.470039,-0.02308026,0.006319975,-0.00008984107,sig,40
2023-10-22 15:29:04,264671,-1.030373,9.357624,1.480378,-0.01768936,0.01252304,0.0006759492,sig,40
2023-10-22 15:29:05,265171,-1.011654,9.382101,1.497324,-0.01364656,0.0128111,-0.00009601459,sig,40
2023-10-22 15:29:05,265672,-1.001234,9.401518,1.48359,-0.01715044,0.01276406,-0.00442004,sig,40
2023-10-22 15:29:05,266172,-1.003256,9.413325,1.477095,-0.02166726,0.00506971,-0.00765505,sig,40
2023-10-22 15:29:06,266672,-1.015927,9.421919,1.462241,-0.03132594,0.002069683,-0.01301714,sig,40
2023-10-22 15:29:07,267172,-1.03248,9.437647,1.437718,-0.04044372,0.003165051,-0.01769021,sig,40
2023-10-22 15:29:07,267672,-1.052968,9.45039,1.414829,-0.04489923,0.004705402,-0.01918382,sig,40
2023-10-22 15:29:07,268172,-1.075589,9.470462,1.404431,-0.04980198,0.008814709,-0.02312041,sig,40
2023-10-22 15:29:08,268671,-1.082586,9.472063,1.377674,-0.04657102,-0.0006068836,-0.02652085,sig,40
2023-10-22 15:29:08,269172,-1.077081,9.467465,1.341668,-0.03326734,-0.01034141,-0.03013047,sig,40